City,Latitude,Longitude,Temperature,Humidity,Cloudiness,Windspeed,Country,Date
kapaa,22.0752,-159.319,84.18,65,20,21.85,US,1650327319
punta arenas,-53.15,-70.9167,48.31,76,75,12.66,CL,1650327191
acarau,-2.8856,-40.12,76.96,89,99,8.03,BR,1650327230
hermanus,-34.4187,19.2345,61.81,93,4,10.4,ZA,1650327320
bethel,41.3712,-73.414,45.45,70,100,10.36,US,1650327110
hasaki,35.7333,140.8333,61.29,57,99,12.01,JP,1650327321
rikitea,-23.1203,-134.9692,78.89,68,6,13.62,PF,1650327321
tomatlan,19.9333,-105.25,82.09,59,38,7.11,MX,1650327321
itarema,-2.9248,-39.9167,76.28,90,100,6.89,BR,1650327322
mataura,-46.1927,168.8643,59.49,55,99,2.89,NZ,1650327322
esperance,-33.8667,121.9,62.69,74,87,10.58,AU,1650327322
ushuaia,-54.8,-68.3,42.42,87,100,6.49,AR,1650327088
berlevag,70.8578,29.0864,39.0,92,100,23.2,NO,1650327323
port lincoln,-34.7333,135.8667,61.36,56,12,9.46,AU,1650327323
revelstoke,50.9832,-118.2023,50.02,43,100,10.36,CA,1650327320
pangody,65.85,74.4859,5.43,95,93,9.62,RU,1650327324
buraydah,26.326,43.975,72.05,9,22,6.22,SA,1650327324
mahebourg,-20.4081,57.7,78.26,94,75,8.05,MU,1650327324
arraial do cabo,-22.9661,-42.0278,72.12,76,0,6.8,BR,1650327325
asau,46.4333,26.4,32.95,89,92,2.62,RO,1650327325
biscarrosse,44.3945,-1.1672,48.15,93,0,3.44,FR,1650327326
busselton,-33.65,115.3333,62.31,80,92,5.57,AU,1650327326
arrecife,28.963,-13.5477,64.38,88,20,25.32,ES,1650327326
sibu,2.3,111.8167,79.11,94,40,3.44,MY,1650327327
nelson bay,-32.7167,152.15,75.09,71,91,6.69,AU,1650327327
albany,42.6001,-73.9662,48.88,62,100,8.99,US,1650327246
airai,-8.9266,125.4092,68.61,66,90,1.95,TL,1650327328
vila velha,-20.3297,-40.2925,73.94,81,0,8.05,BR,1650327274
kodiak,57.79,-152.4072,40.51,70,100,12.66,US,1650327230
chester,40.1254,-75.8749,40.08,94,75,23.02,US,1650327328
rio gallegos,-51.6226,-69.2181,48.25,87,0,20.71,AR,1650327275
zabid,14.1951,43.3152,82.44,70,39,3.24,YE,1650327328
aksarka,66.5606,67.7975,10.0,97,95,2.93,RU,1650327329
kristiansund,63.1115,7.732,43.45,81,0,5.75,NO,1650327329
hobart,-42.8794,147.3294,61.27,71,75,4.61,AU,1650327329
luderitz,-26.6481,15.1594,75.63,37,3,8.9,NA,1650327330
kankakee,41.15,-87.8667,37.92,75,100,19.57,US,1650327055
georgetown,5.4112,100.3354,80.53,89,20,0.0,MY,1650327086
provideniya,64.3833,-173.3,35.37,80,100,11.18,RU,1650327139
saldanha,-33.0117,17.9442,61.83,67,0,7.52,ZA,1650327331
mirador,-6.3708,-44.3631,73.89,94,74,1.81,BR,1650327331
faanui,-16.4833,-151.75,81.66,72,10,8.41,PF,1650327331
surt,31.2089,16.5887,59.11,63,0,15.01,LY,1650327332
cherskiy,68.75,161.3,25.81,86,100,8.57,RU,1650327332
rudnogorsk,57.2639,103.7519,24.57,74,98,10.63,RU,1650327333
tual,-5.6667,132.75,83.86,70,87,3.15,ID,1650327333
new norfolk,-42.7826,147.0587,60.93,62,100,2.37,AU,1650327333
port alfred,-33.5906,26.891,65.05,85,64,3.74,ZA,1650327334
bluff,-46.6,168.3333,59.81,76,100,4.72,NZ,1650327334
zhanaozen,43.3,52.8,58.95,34,4,7.94,KZ,1650327335
tabas,33.5959,56.9244,58.8,41,14,2.28,IR,1650327335
kaitangata,-46.2817,169.8464,64.02,50,94,2.51,NZ,1650327335
dharchula,29.85,80.5333,64.13,25,0,8.5,IN,1650327336
amazar,53.858,120.875,45.72,64,100,2.91,RU,1650327336
barrow,71.2906,-156.7887,10.42,72,0,5.75,US,1650327336
husavik,66.0449,-17.3389,34.16,97,100,12.57,IS,1650327337
ancud,-41.8697,-73.8203,51.22,86,65,7.92,CL,1650327337
victoria,22.2855,114.1577,70.25,84,100,8.01,HK,1650327163
isangel,-19.55,169.2667,82.76,74,100,2.93,VU,1650327338
saskylakh,71.9167,114.0833,11.48,94,100,13.38,RU,1650327338
bredasdorp,-34.5322,20.0403,58.28,96,11,5.53,ZA,1650327338
goure,13.9835,10.2704,87.03,29,86,7.02,NE,1650327339
chokurdakh,70.6333,147.9167,12.69,90,47,4.72,RU,1650327339
iqaluit,63.7506,-68.5145,1.13,78,100,4.61,CA,1650327340
puerto ayora,-0.7393,-90.3518,75.69,87,100,6.53,EC,1650327340
carnarvon,-24.8667,113.6333,69.87,64,4,9.22,AU,1650327340
hithadhoo,-0.6,73.0833,82.69,71,97,1.5,MV,1650327266
qaanaaq,77.484,-69.3632,-8.72,84,56,1.77,GL,1650327341
mount gambier,-37.8333,140.7667,60.3,54,50,7.34,AU,1650327341
chingirlau,51.095,54.0814,53.74,59,99,7.09,KZ,1650327341
quthing,-30.4,27.7003,49.8,79,0,4.29,LS,1650327342
cayenne,4.9333,-52.3333,77.09,1,75,3.44,GF,1650327342
osorno,-40.5667,-73.15,53.91,76,20,4.61,CL,1650327342
mar del plata,-38.0023,-57.5575,65.08,93,0,20.0,AR,1650327343
cidreira,-30.1811,-50.2056,69.28,72,71,16.44,BR,1650327343
hilo,19.7297,-155.09,78.28,88,100,3.44,US,1650327344
salalah,17.0151,54.0924,80.69,89,75,4.61,OM,1650327344
clyde river,70.4692,-68.5914,-19.97,83,0,2.3,CA,1650327344
avarua,-21.2078,-159.775,82.45,65,83,3.44,CK,1650327318
rodrigues alves,-7.738,-72.6509,75.4,94,57,1.63,BR,1650327345
bahce,37.1972,36.5766,64.27,37,100,6.26,TR,1650327345
cabo san lucas,22.8909,-109.9124,87.62,40,6,3.0,MX,1650327063
sao filipe,14.8961,-24.4956,71.71,77,25,7.45,CV,1650327346
eufaula,31.8913,-85.1455,64.44,68,0,6.91,US,1650327047
baswa,27.15,76.5833,85.91,18,1,6.51,IN,1650327346
nyurba,63.2842,118.3319,19.83,91,100,10.63,RU,1650327346
severo-kurilsk,50.6789,156.125,32.81,88,96,3.38,RU,1650327347
lompoc,34.6391,-120.4579,74.57,62,0,23.0,US,1650327347
ashland,40.8167,-82.2665,36.14,94,100,12.24,US,1650327143
lavrentiya,65.5833,-171.0,30.61,92,100,8.48,RU,1650327347
lakselv,70.0513,24.9718,44.42,76,100,6.91,NO,1650327348
la sarre,48.8002,-79.1996,34.21,75,100,8.88,CA,1650327154
qiongshan,20.0058,110.3542,69.78,94,100,11.18,CN,1650327349
longyearbyen,78.2186,15.6401,12.04,79,0,0.0,SJ,1650327349
dikson,73.5069,80.5464,2.37,95,100,14.45,RU,1650327349
ilhabela,-23.7781,-45.3581,70.02,81,35,5.53,BR,1650327350
kavieng,-2.5744,150.7967,85.55,65,95,14.9,PG,1650327350
grand gaube,-20.0064,57.6608,78.39,88,27,1.01,MU,1650327350
atuona,-9.8,-139.0333,79.68,72,36,17.6,PF,1650327317
portland,45.5234,-122.6762,50.52,88,100,10.36,US,1650327203
butaritari,3.0707,172.7902,82.09,74,18,12.75,KI,1650327318
east london,-33.0153,27.9116,67.33,83,89,4.43,ZA,1650327206
puerto madryn,-42.7692,-65.0385,66.81,52,1,11.68,AR,1650327351
jamestown,42.097,-79.2353,34.72,77,100,11.5,US,1650327340
ahuimanu,21.4447,-157.8378,83.91,59,40,13.8,US,1650327351
quatre cocos,-20.2078,57.7625,78.1,88,47,9.71,MU,1650327352
joshimath,30.5667,79.5667,56.17,40,0,8.14,IN,1650327352
ostrovnoy,68.0531,39.5131,36.07,99,100,9.26,RU,1650327353
loa janan,-0.583,117.095,78.03,92,100,2.06,ID,1650327353
christchurch,-43.5333,172.6333,67.41,78,97,6.91,NZ,1650327063
stornoway,58.2093,-6.3865,46.92,93,100,14.97,GB,1650327353
xuddur,4.1213,43.8894,74.14,81,8,5.5,SO,1650327354
touros,-5.1989,-35.4608,79.36,79,91,8.5,BR,1650327354
yellowknife,62.456,-114.3525,27.12,36,75,10.36,CA,1650327354
aguimes,27.9054,-15.4461,65.66,82,20,17.27,ES,1650327355
penarroya-pueblonuevo,38.3,-5.2667,52.45,82,27,3.11,ES,1650327355
saint george,37.1041,-113.5841,87.64,6,0,10.36,US,1650327139
vaini,-21.2,-175.2,78.96,94,75,5.75,TO,1650327356
andenes,69.3143,16.1194,42.78,93,100,6.91,NO,1650327356
namtsy,62.7161,129.6658,30.6,89,99,10.78,RU,1650327357
barbate,36.1924,-5.9219,59.81,91,24,5.23,ES,1650327357
harper,4.375,-7.7169,77.25,89,98,3.74,LR,1650327184
altamira,-3.2033,-52.2064,73.96,97,78,0.45,BR,1650327357
gallup,35.5281,-108.7426,76.84,4,0,20.71,US,1650327358
zanjan,36.6736,48.4787,52.95,29,16,3.58,IR,1650327358
osakarovka,50.565,72.5692,37.42,83,73,8.97,KZ,1650327359
el dorado,38.7666,-120.5177,57.43,66,87,3.0,US,1650327359
lebu,-37.6167,-73.65,53.96,93,99,3.13,CL,1650327359
dingle,10.9995,122.6711,80.85,78,23,11.07,PH,1650327360
saint-joseph,-21.3667,55.6167,75.58,86,12,5.23,RE,1650327360
doha,25.2867,51.5333,75.18,35,0,6.91,QA,1650327360
ahipara,-35.1667,173.1667,75.11,70,8,9.69,NZ,1650327361
geraldton,-28.7667,114.6,64.81,48,0,12.66,AU,1650327361
ponto novo,-10.8628,-40.1336,69.76,95,99,6.93,BR,1650327361
te anau,-45.4167,167.7167,61.81,65,100,3.62,NZ,1650327362
sayyan,15.1718,44.3244,59.36,31,55,6.62,YE,1650327362
nichinan,31.6,131.3667,62.28,75,100,4.52,JP,1650327362
constitucion,-35.3333,-72.4167,54.18,94,89,8.52,CL,1650327363
tabou,4.423,-7.3528,76.75,88,100,3.51,CI,1650327183
kangaatsiaq,68.3065,-53.4641,-2.45,98,74,6.6,GL,1650327363
san angelo,31.4638,-100.437,78.94,25,15,13.0,US,1650327364
jyvaskyla,62.2415,25.7209,28.74,93,0,1.14,FI,1650327364
norman wells,65.282,-126.8329,30.24,27,0,8.05,CA,1650327364
wanaka,-44.7,169.15,59.11,68,100,1.01,NZ,1650327365
fortuna,40.5982,-124.1573,48.92,95,100,9.22,US,1650327365
bambous virieux,-20.3428,57.7575,78.22,94,75,8.05,MU,1650327365
krasnoselkup,65.7,82.4667,10.94,92,82,17.27,RU,1650327366
llanes,43.4198,-4.7549,51.69,90,100,14.32,ES,1650327366
pascagoula,30.3658,-88.5561,64.51,72,0,16.11,US,1650327366
castro,-24.7911,-50.0119,54.16,98,39,5.57,BR,1650327367
hailar,49.2,119.7,54.03,32,95,8.34,CN,1650327367
rocha,-34.4833,-54.3333,57.43,94,49,5.64,UY,1650327367
bonavista,48.6499,-53.1147,31.73,76,58,25.79,CA,1650327368
conceicao do araguaia,-8.2578,-49.2647,74.73,94,92,3.02,BR,1650327368
pringsewu,-5.3582,104.9744,76.46,89,98,1.05,ID,1650327290
kamenka,51.3223,42.7678,50.27,76,79,10.94,RU,1650327369
regente feijo,-22.2214,-51.3028,67.28,73,0,6.91,BR,1650327369
port elizabeth,-33.918,25.5701,57.31,95,0,3.44,ZA,1650327369
tiksi,71.6872,128.8694,6.35,98,100,2.84,RU,1650327370
bocas del toro,9.3333,-82.25,79.03,77,100,2.55,PA,1650327370
ca mau,9.1769,105.15,80.96,79,80,6.29,VN,1650327371
port macquarie,-31.4333,152.9167,74.89,68,60,9.89,AU,1650327371
kolondieba,11.0882,-6.8926,87.55,37,100,5.35,ML,1650327371
thompson,55.7435,-97.8558,39.36,33,75,12.66,CA,1650327372
noormarkku,61.5927,21.8685,31.78,93,0,2.3,FI,1650327372
meulaboh,4.1363,96.1285,76.75,90,97,5.23,ID,1650327372
hay river,60.8156,-115.7999,24.78,39,20,8.05,CA,1650327321
chuy,-33.6971,-53.4616,62.91,85,14,7.87,UY,1650327373
tuktoyaktuk,69.4541,-133.0374,15.8,67,0,10.36,CA,1650327373
bambanglipuro,-7.95,110.2833,78.49,87,100,3.4,ID,1650327373
gorodishche,48.8045,44.4744,52.68,71,0,15.66,RU,1650327374
rock sound,24.9,-76.2,77.67,73,25,2.33,BS,1650327374
beira,-19.8436,34.8389,71.49,86,74,11.99,MZ,1650327374
maragogi,-9.0122,-35.2225,78.01,81,76,5.77,BR,1650327375
yerbogachen,61.2767,108.0108,16.02,85,100,12.64,RU,1650327132
brownwood,31.7093,-98.9912,76.32,33,0,11.5,US,1650327375
beyneu,45.3167,55.2,61.16,38,25,9.73,KZ,1650327376
cape town,-33.9258,18.4232,58.1,91,0,10.36,ZA,1650327376
ankang,32.68,109.0172,57.61,53,100,0.49,CN,1650327376
alofi,-19.0595,-169.9187,82.29,83,83,4.61,NU,1650327377
necochea,-38.5473,-58.7368,59.63,85,86,10.45,AR,1650327377
camacha,33.0833,-16.3333,58.42,63,40,20.71,PT,1650327378
saint-philippe,-21.3585,55.7679,76.59,87,24,9.6,RE,1650327378
centralia,46.7162,-122.9543,49.68,82,75,8.05,US,1650327079
bafra,41.5678,35.9069,51.82,91,76,6.4,TR,1650327379
bandar-e lengeh,26.5579,54.8807,73.51,78,36,4.61,IR,1650327379
chapais,49.7834,-74.8492,35.38,87,100,4.88,CA,1650327379
broome,42.2506,-75.833,37.38,80,100,10.36,US,1650327379
usinsk,65.9939,57.5281,30.54,99,100,8.93,RU,1650327380
gladstone,-23.85,151.25,76.78,78,100,4.61,AU,1650327380
baykit,61.67,96.37,13.78,93,82,3.89,RU,1650327381
chimbote,-9.0853,-78.5783,66.2,85,86,8.05,PE,1650327282
san andres,12.5847,-81.7006,82.42,74,40,8.05,CO,1650327381
antsirabe,-19.85,47.0333,60.15,91,66,2.77,MG,1650327381
north bend,43.4065,-124.2243,46.92,96,100,8.05,US,1650327321
bullas,38.0467,-1.6723,54.36,72,65,3.51,ES,1650327382
merrill,45.1805,-89.6835,37.17,77,100,6.91,US,1650327382
angoche,-16.2325,39.9086,77.4,75,9,7.16,MZ,1650327383
canoa,18.355,-71.1585,74.1,77,100,2.82,DO,1650327383
chifeng,42.2683,118.9636,59.54,22,5,13.89,CN,1650327383
dali,25.7,100.1833,55.83,78,39,0.94,CN,1650327384
shimoda,34.6667,138.95,61.16,77,100,8.16,JP,1650327384
kieta,-6.2167,155.6333,84.74,66,100,2.75,PG,1650327384
maniitsoq,65.4167,-52.9,10.6,83,82,13.62,GL,1650327385
tiznit,29.5833,-9.5,70.45,30,72,0.38,MA,1650327385
iquique,-20.2208,-70.1431,64.44,80,25,4.45,CL,1650327385
ribeira grande,38.5167,-28.7,59.58,69,27,17.29,PT,1650327386
nikolskoye,59.7035,30.7861,40.8,90,77,3.31,RU,1650327386
vestmannaeyjar,63.4427,-20.2734,43.68,78,9,19.98,IS,1650327386
tuatapere,-46.1333,167.6833,63.23,65,100,3.15,NZ,1650327387
fort nelson,58.8053,-122.7002,27.99,40,75,5.75,CA,1650327387
worthing,50.8145,-0.3713,49.95,83,88,4.0,GB,1650327387
praia da vitoria,38.7333,-27.0667,57.76,88,40,18.1,PT,1650327388
kruisfontein,-34.0033,24.7314,54.88,92,22,2.13,ZA,1650327388
antalaha,-14.9003,50.2788,73.63,84,64,6.22,MG,1650327388
wewak,-3.5534,143.6268,83.23,74,98,1.95,PG,1650327389
gasa,31.5,34.4667,66.88,87,100,10.98,PS,1650327219
jalu,29.0331,21.5482,61.7,60,1,11.5,LY,1650327389
cockburn town,21.4612,-71.1419,77.54,82,43,24.43,TC,1650327338
inuvik,68.3499,-133.7218,32.86,27,0,8.05,CA,1650327390
astara,38.5,48.6667,45.3,66,10,3.33,AZ,1650327390
hibbing,47.4272,-92.9377,33.22,44,100,12.66,US,1650327390
acapulco,16.8634,-99.8901,82.22,74,0,8.05,MX,1650327308
fairbanks,64.8378,-147.7164,44.24,28,0,13.8,US,1650327391
byron bay,-28.65,153.6167,74.95,66,3,2.17,AU,1650327391
male,4.1748,73.5089,83.73,65,88,5.73,MV,1650327391
port-gentil,-0.7193,8.7815,81.5,82,100,8.9,GA,1650327392
gorontalo,0.5412,123.0595,82.49,71,32,1.12,ID,1650327392
manta,-0.95,-80.7333,78.58,78,75,11.5,EC,1650327392
liuzhou,24.3126,109.3892,61.72,79,100,3.94,CN,1650327393
kambove,-10.8764,26.5969,59.83,98,34,4.07,CD,1650327393
galveston,29.3669,-94.9669,77.18,64,0,13.8,US,1650327336
talcahuano,-36.7167,-73.1167,53.28,100,40,2.3,CL,1650327393
dryden,49.7833,-92.7503,32.29,64,100,9.22,CA,1650327391
samana,19.2056,-69.3369,75.87,85,100,7.99,DO,1650327394
ranau,5.9538,116.6641,75.87,80,93,1.52,MY,1650327394
oga,46.4631,10.347,39.88,91,20,4.76,IT,1650327395
klaksvik,62.2266,-6.589,45.52,92,70,29.33,FO,1650327395
lapy,52.9911,22.8842,36.25,94,100,10.58,PL,1650327395
cuajinicuilapa,16.4667,-98.4167,85.64,47,10,9.06,MX,1650327396
solnechnyy,50.7214,136.6319,40.14,73,79,6.53,RU,1650327396
guerrero negro,27.9769,-114.0611,65.39,69,15,19.93,MX,1650327396
keti bandar,24.1447,67.4497,79.34,87,8,10.25,PK,1650327397
saint anthony,45.0205,-93.218,37.83,56,100,21.85,US,1650327397
gravdal,68.1214,13.5031,42.31,88,84,7.31,NO,1650327397
deming,32.2687,-107.7586,89.49,3,0,10.36,US,1650327398
morant bay,17.8815,-76.4093,78.42,88,53,5.91,JM,1650327398
san patricio,28.017,-97.5169,82.49,67,4,17.34,US,1650327398
vostok,46.4856,135.8833,43.36,37,40,10.2,RU,1650327399
hoi an,15.8794,108.335,76.96,86,87,7.31,VN,1650327399
xinyu,27.8043,114.9334,59.61,83,99,1.03,CN,1650327399
muisne,0.6,-80.0333,76.39,84,98,6.55,EC,1650327400
marawi,7.9986,124.2928,74.52,86,90,2.04,PH,1650327400
trairi,-3.2778,-39.2689,73.63,97,99,6.78,BR,1650327317
mpraeso,6.5932,-0.7346,70.43,90,100,2.33,GH,1650327401
chitral,35.8462,71.7858,60.49,77,100,2.37,PK,1650327401
batticaloa,7.7102,81.6924,80.65,77,77,1.66,LK,1650327401
hokitika,-42.7167,170.9667,64.65,49,96,1.19,NZ,1650327402
excelsior springs,39.3392,-94.2261,54.82,20,0,12.66,US,1650327402
pangnirtung,66.1451,-65.7125,-15.21,97,95,5.86,CA,1650327402
marquette,46.5333,-87.6335,33.24,94,100,3.22,US,1650327384
madison,34.7334,-86.5667,58.35,60,0,10.36,US,1650327303
alexandria,31.2156,29.9553,62.6,74,67,6.76,EG,1650327403
dedougou,12.4667,-3.4667,86.32,21,76,3.47,BF,1650327403
tselinnoye,53.0833,85.6667,37.89,94,100,12.77,RU,1650327404
gornopravdinsk,60.05,69.9,25.12,91,40,5.41,RU,1650327404
hamilton,39.1834,-84.5333,42.98,83,100,12.66,US,1650327404
fort frances,48.5999,-93.4003,34.02,70,75,13.8,CA,1650327405
sao felix do xingu,-6.6447,-51.995,73.74,98,100,0.92,BR,1650327405
longhua,23.6137,114.1919,60.82,90,100,2.68,CN,1650327406
linxia,35.6003,103.2064,43.47,34,11,3.74,CN,1650327406
coquimbo,-29.9533,-71.3436,56.93,88,100,4.61,CL,1650327151
dongsheng,39.8161,109.9776,46.53,26,0,10.85,CN,1650327406
kalabo,-14.97,22.6814,68.34,77,76,4.94,ZM,1650327407
khatanga,71.9667,102.5,0.14,97,94,7.09,RU,1650327407
nangong,37.3581,115.3744,60.6,46,0,10.49,CN,1650327407
pio xii,-3.8325,-45.1525,74.84,97,98,3.29,BR,1650327408
tucuman,-26.8241,-65.2226,64.4,82,0,3.44,AR,1650327408
qena,26.1615,32.7183,84.4,18,100,9.04,EG,1650327408
huilong,31.8111,121.655,60.93,65,70,3.62,CN,1650327408
manitouwadge,49.1215,-85.8403,30.34,95,100,0.85,CA,1650327409
dhidhdhoo,6.8833,73.1,83.79,73,81,5.93,MV,1650327409
mount isa,-20.7333,139.5,83.97,28,1,17.27,AU,1650327409
sakakah,29.9697,40.2064,76.57,11,72,10.18,SA,1650327410
yuli,9.6989,10.2744,77.74,73,99,5.75,NG,1650327410
atoyac,20.0167,-103.5333,89.33,27,45,11.59,MX,1650327410
evensk,61.95,159.2333,27.66,92,100,5.17,RU,1650327411
havoysund,70.9963,24.6622,39.43,91,100,20.4,NO,1650327411
mehamn,71.0357,27.8492,39.72,95,100,21.83,NO,1650327412
sur,22.5667,59.5289,81.59,61,0,7.14,OM,1650327412
tripoli,32.8752,13.1875,58.6,58,0,7.23,LY,1650327336
malanje,-9.5402,16.341,65.26,97,100,3.6,AO,1650327412
okato,-39.2,173.8833,66.69,78,92,10.29,NZ,1650327413
parelhas,-6.6878,-36.6575,75.79,79,92,8.72,BR,1650327413
belaya gora,68.5333,146.4167,21.22,87,74,3.85,RU,1650327413
lorengau,-2.0226,147.2712,85.17,69,100,9.44,PG,1650327414
anchorage,61.2181,-149.9003,46.72,37,0,11.5,US,1650327290
zuwarah,32.9312,12.082,59.29,55,1,4.38,LY,1650327414
karratha,-20.7377,116.8463,82.06,42,3,21.34,AU,1650327129
sabha,27.0377,14.4283,67.33,20,0,5.44,LY,1650327415
ponta do sol,32.6667,-17.1,63.72,77,62,13.89,PT,1650327415
broken hill,-31.95,141.4333,58.82,58,55,20.04,AU,1650327415
poum,-20.2333,164.0167,78.67,75,5,9.89,NC,1650327416
upernavik,72.7868,-56.1549,9.55,95,100,10.04,GL,1650327416
hargeysa,9.56,44.065,71.1,69,6,3.69,SO,1650327416
caravelas,-17.7125,-39.2481,76.28,72,52,10.07,BR,1650327416
adrar,20.5022,-10.0711,76.91,14,2,10.92,MR,1650327417
liloy,8.1144,122.6594,81.1,79,95,11.1,PH,1650327417
hami,42.8,93.45,57.27,13,3,5.14,CN,1650327417
aklavik,68.2191,-135.0107,25.11,77,7,14.76,CA,1650327418
yanam,16.7333,82.2167,77.27,97,8,3.49,IN,1650327418
punta cardon,11.6581,-70.215,79.77,79,80,19.24,VE,1650327418
mazyr,52.0495,29.2456,34.79,94,100,4.21,BY,1650327419
hidalgo,20.5,-99.0,70.74,54,2,16.22,MX,1650327419
souillac,-20.5167,57.5167,77.38,94,75,8.05,MU,1650327419
aykhal,66.0,111.5,7.18,95,100,24.29,RU,1650327420
jumla,29.2747,82.1838,47.71,52,0,4.83,NP,1650327305
kurumkan,54.3,110.3,43.79,77,96,8.34,RU,1650327420
prince george,53.9166,-122.753,42.62,63,100,1.01,CA,1650327420
tasiilaq,65.6145,-37.6368,30.36,98,100,4.41,GL,1650327421
khandyga,62.6667,135.6,29.34,72,100,8.81,RU,1650327421
kasongo-lunda,-6.4667,16.8167,73.02,91,100,1.68,CD,1650327421
alicia,16.7794,121.6973,77.56,81,20,2.59,PH,1650327422
sitka,57.0531,-135.33,51.69,24,75,17.27,US,1650327202
manono,-7.3,27.4167,70.65,87,27,4.09,CD,1650327422
lyngseidet,69.5763,20.2189,42.8,94,100,2.64,NO,1650327423
clarksdale,34.2001,-90.5709,60.78,59,0,9.22,US,1650327423
haines junction,60.7522,-137.5108,33.75,29,98,6.91,CA,1650327424
nagato,34.3833,131.2,58.19,47,86,3.49,JP,1650327424
lagoa,39.05,-27.9833,58.5,71,54,20.02,PT,1650327424
lakkion,37.1333,26.85,58.5,79,83,9.19,GR,1650327425
tautira,-17.7333,-149.15,80.28,74,20,6.49,PF,1650327425
gat,31.61,34.7642,68.4,100,100,7.14,IL,1650327244
coihaique,-45.5752,-72.0662,50.61,92,84,4.9,CL,1650327427
kutum,14.2,24.6667,80.64,26,98,13.06,SD,1650327428
vanimo,-2.6741,141.3028,83.25,73,99,2.15,PG,1650327428
kahului,20.8947,-156.47,82.42,54,0,19.57,US,1650327429
kaeo,-35.1,173.7833,73.33,90,50,8.37,NZ,1650327429
verkhnevilyuysk,63.4453,120.3167,21.33,92,100,10.38,RU,1650327429
batagay-alyta,67.8006,130.4114,16.99,88,100,1.77,RU,1650327430
codrington,-38.2667,141.9667,59.63,59,100,9.51,AU,1650327430
korla,41.7597,86.1469,55.8,16,22,3.74,CN,1650327430
abu samrah,35.3029,37.1841,70.09,36,100,7.56,SY,1650327431
tilichiki,60.4667,166.1,25.11,83,97,4.61,RU,1650327431
shakawe,-18.3667,21.85,65.59,65,44,6.22,BW,1650327431
eyl,7.9803,49.8164,80.8,83,13,4.43,SO,1650327432
sola,-13.8833,167.55,82.83,75,86,12.82,VU,1650327432
hanmer springs,-42.5167,172.8167,70.07,38,39,2.15,NZ,1650327433
krasnyy chikoy,50.3643,108.7512,50.49,46,52,4.03,RU,1650327433
manaure,11.7751,-72.4445,79.16,84,36,8.55,CO,1650327434
bogovinje,41.9236,20.9136,36.34,91,88,3.47,MK,1650327434
waipawa,-41.4122,175.5153,65.84,64,4,5.01,NZ,1650327434
timra,62.487,17.3257,29.88,93,84,2.3,SE,1650327435
alvorada,-12.48,-49.1247,73.94,87,54,3.47,BR,1650327435
harnoli,32.2792,71.5539,82.65,25,99,5.82,PK,1650327435
sunrise manor,36.2111,-115.0731,92.8,4,0,21.85,US,1650327186
phan thiet,10.9333,108.1,79.93,70,18,3.51,VN,1650327436
padang,-0.9492,100.3543,77.05,86,100,3.83,ID,1650327436
skibbereen,51.55,-9.2667,44.11,84,72,3.78,IE,1650327437
akhmeta,42.0311,45.2075,50.52,66,10,2.37,GE,1650327437
neiafu,-18.65,-173.9833,84.88,79,40,10.36,TO,1650327437
mayor pablo lagerenza,-19.9309,-60.7718,69.67,47,0,3.87,PY,1650327438
salmo,49.1999,-117.2689,43.29,99,100,2.57,CA,1650327439
ust-ilimsk,58.0006,102.6619,23.88,68,99,10.33,RU,1650327439
libreville,0.3925,9.4537,79.61,83,100,2.93,GA,1650327439
raudeberg,61.9875,5.1352,41.67,71,0,5.77,NO,1650327440
brae,60.3964,-1.353,45.59,83,23,15.75,GB,1650327440
chekhov,55.1431,37.4711,40.95,84,100,8.25,RU,1650327440
hit,33.6416,42.8251,75.02,13,73,7.16,IQ,1650327441
storforshei,66.4043,14.5233,35.65,96,97,4.25,NO,1650327442
sao joao da barra,-21.6403,-41.0511,68.47,83,7,9.31,BR,1650327442
the valley,18.217,-63.0578,79.11,75,78,24.27,AI,1650327442
pisco,-13.7,-76.2167,64.45,88,0,12.66,PE,1650327443
port moresby,-9.4431,147.1797,78.22,89,75,11.5,PG,1650327443
el reno,35.5323,-97.955,62.96,35,0,12.66,US,1650327166
calamar,10.2511,-74.9146,82.06,72,100,9.48,CO,1650327444
ilulissat,69.2167,-51.1,8.62,72,75,13.8,GL,1650327444
ryotsu,38.0833,138.4333,52.7,62,14,7.9,JP,1650327445
mnogovershinnyy,53.9353,139.9242,29.32,91,100,7.34,RU,1650327445
dickinson,29.4608,-95.0513,77.14,60,0,11.5,US,1650327301
abu dhabi,24.4667,54.3667,78.82,45,0,5.75,AE,1650327165
grindavik,63.8424,-22.4338,41.47,81,75,9.22,IS,1650327445
turukhansk,65.8167,87.9833,23.85,94,100,15.86,RU,1650327446
olafsvik,64.8945,-23.7142,40.66,80,42,9.57,IS,1650327446
kapiri mposhi,-13.9652,28.6809,61.03,97,47,4.0,ZM,1650327446
tarko-sale,64.9225,77.785,12.36,90,98,13.49,RU,1650327447
karoi,-16.8099,29.6925,65.26,74,92,1.66,ZW,1650327447
ust-kuyga,70.0167,135.6,17.87,73,39,3.31,RU,1650327448
san cristobal,7.7669,-72.225,75.38,92,100,3.2,VE,1650327448
avera,33.194,-82.5271,62.11,77,76,10.89,US,1650327448
dergaon,26.7,93.9667,69.89,82,32,4.54,IN,1650327442
itoman,26.1247,127.6694,69.4,92,75,11.5,JP,1650327449
hobyo,5.3505,48.5268,81.61,73,62,5.73,SO,1650327449
olinda,-8.0089,-34.8553,82.13,69,40,6.91,BR,1650327450
miri,4.4148,114.0089,84.34,89,40,0.0,MY,1650327450
kenai,60.5544,-151.2583,47.03,48,0,14.97,US,1650327165
grand-santi,4.25,-54.3833,73.33,99,84,2.48,GF,1650327451
rio claro,-22.4114,-47.5614,64.58,78,54,8.63,BR,1650327451
bontang,0.1333,117.5,80.42,85,100,6.49,ID,1650327451
sorong,-0.8833,131.25,82.0,75,100,3.44,ID,1650327452
ossora,59.2353,163.0719,30.22,74,100,2.04,RU,1650327452
yulara,-25.2406,130.9889,62.44,59,3,13.8,AU,1650327452
new ulm,44.3125,-94.4605,36.43,63,75,24.16,US,1650327439
sargatskoye,55.6101,73.4972,29.79,72,5,5.01,RU,1650327453
vangaindrano,-23.35,47.6,74.21,88,95,3.8,MG,1650327453
aragarcas,-15.8975,-52.2508,73.63,69,4,1.12,BR,1650327454
maloy,61.9353,5.1136,42.53,71,0,5.77,NO,1650327454
vao,-22.6667,167.4833,75.85,73,47,6.58,NC,1650327454
comodoro rivadavia,-45.8667,-67.5,48.06,87,0,5.75,AR,1650327455
half moon bay,37.4636,-122.4286,71.02,66,100,17.27,US,1650327408
rio grande,-32.035,-52.0986,64.94,82,40,13.44,BR,1650327455
sungairaya,0.7,108.9,75.25,96,100,4.14,ID,1650327455
guiglo,6.5456,-7.4966,71.2,96,100,1.95,CI,1650327456
faya,18.3851,42.4509,64.51,33,62,3.94,SA,1650327456
sinnar,13.5691,33.5672,93.31,14,86,11.36,SD,1650327413
inirida,3.8653,-67.9239,74.21,92,96,1.3,CO,1650327456
laguna,38.421,-121.4238,74.05,41,40,14.97,US,1650327457
taltal,-25.4,-70.4833,59.38,83,21,1.12,CL,1650327457
port hardy,50.6996,-127.4199,42.98,87,100,6.91,CA,1650327458
porto novo,6.4965,2.6036,78.62,83,100,2.44,BJ,1650327458
nouadhibou,20.931,-17.0347,65.07,85,100,14.52,MR,1650327458
progreso,21.2833,-89.6667,84.31,79,1,15.05,MX,1650327459
nizwa,22.9333,57.5333,78.35,16,0,3.89,OM,1650327459
bathsheba,13.2167,-59.5167,79.41,78,20,18.41,BB,1650327460
urubicha,-15.3833,-62.95,72.82,68,18,1.77,BO,1650327460
rouvroy,50.3925,2.904,49.89,75,100,5.84,FR,1650327460
ambositra,-20.5167,47.25,64.18,88,100,1.66,MG,1650327460
walvis bay,-22.9575,14.5053,60.1,88,39,2.3,NA,1650327461
lakes entrance,-37.8811,147.981,60.17,93,100,5.1,AU,1650327461
dingolfing,48.6333,12.5,45.23,62,76,2.48,DE,1650327462
kharp,66.8014,65.8081,15.94,97,99,1.5,RU,1650327462
castelnaudary,43.3183,1.9545,57.4,82,97,6.58,FR,1650327462
neuquen,-38.9516,-68.0591,57.09,67,0,0.0,AR,1650327463
mangrol,21.1167,70.1167,79.07,71,0,12.44,IN,1650327463
san lawrenz,36.0553,14.204,53.85,78,3,10.22,MT,1650327464
dukat,62.55,155.55,23.07,83,82,6.4,RU,1650327464
belmonte,-15.8631,-38.8828,75.96,84,98,12.33,BR,1650327465
nanortalik,60.1432,-45.2371,32.43,93,100,10.6,GL,1650327465
capua,41.0997,14.2201,52.75,93,0,4.61,IT,1650327465
kavaratti,10.5669,72.642,83.75,74,45,8.48,IN,1650327466
le port,-20.9373,55.2919,77.25,80,4,6.53,RE,1650327466
casablanca,33.5928,-7.6192,64.33,77,76,5.99,MA,1650327348
lata,40.1629,-8.3327,53.08,83,64,7.38,PT,1650327467
omboue,-1.5746,9.2618,78.26,93,100,4.9,GA,1650327467
pevek,69.7008,170.3133,18.0,86,58,4.88,RU,1650327467
sungaipenuh,-2.0833,101.3833,66.36,92,100,1.7,ID,1650327468
beloha,-25.1667,45.05,73.9,87,93,10.33,MG,1650327468
los llanos de aridane,28.6585,-17.9182,66.13,63,100,18.99,ES,1650327469
dallas,32.7668,-96.7836,72.64,42,75,11.5,US,1650327457
praya,14.9215,-23.5087,70.43,82,15,10.07,CV,1650327313
sosnovo-ozerskoye,52.5249,111.5418,46.2,61,90,14.79,RU,1650327469
hambantota,6.1241,81.1185,79.3,85,60,11.68,LK,1650327470
sisimiut,66.9395,-53.6735,10.83,76,99,9.22,GL,1650327470
quelimane,-17.8786,36.8883,76.95,94,20,2.3,MZ,1650327470
zhireken,52.8249,117.3076,49.39,51,99,10.47,RU,1650327471
oranjestad,12.524,-70.027,79.09,87,33,18.37,AW,1650327471
russkaya polyana,49.417,31.9201,37.45,77,97,10.33,UA,1650327471
vardo,70.3705,31.1107,40.44,90,100,19.39,NO,1650327472
kailua,21.4022,-157.7394,84.18,69,18,5.01,US,1650327472
sao bernardo,-3.3614,-42.4178,74.55,97,98,3.89,BR,1650327472
nenjiang,49.1833,125.2167,57.18,39,90,13.73,CN,1650327473
tazovskiy,67.4667,78.7,6.64,92,100,18.5,RU,1650327473
madarounfa,13.3087,7.156,89.02,17,43,3.76,NE,1650327474
kalmunai,7.4167,81.8167,79.77,80,91,2.75,LK,1650327474
tawang,27.5833,91.8667,44.55,78,6,3.38,IN,1650327474
nosy varika,-20.5833,48.5333,71.8,91,33,3.29,MG,1650327475
port-cartier,50.0334,-66.8654,33.75,86,8,6.38,CA,1650327475
were ilu,10.6,39.4333,52.12,61,19,5.35,ET,1650327475
maltahohe,-24.8333,16.9833,62.2,32,3,11.83,NA,1650327476
mwinilunga,-11.7358,24.4293,61.16,98,8,3.6,ZM,1650327476
saint-augustin,51.226,-58.6502,23.7,68,2,11.52,CA,1650327476
batsfjord,70.6345,29.7185,38.98,87,75,34.52,NO,1650327477
kihei,20.785,-156.4656,82.42,71,0,19.57,US,1650327477
kuching,1.55,110.3333,77.22,100,40,1.14,MY,1650327477
ampanihy,-24.7,44.75,73.53,82,82,4.25,MG,1650327434
torbay,47.6666,-52.7314,34.75,83,39,5.99,CA,1650327478
cerrito,6.8432,-72.694,55.54,95,100,3.31,CO,1650327478
stabat,3.761,98.4513,77.2,96,100,2.15,ID,1650327478
jacksonville,30.3322,-81.6556,80.04,67,0,6.91,US,1650327346
yeppoon,-23.1333,150.7333,80.38,73,36,9.64,AU,1650327479
la llanada,1.49,-77.5835,49.08,98,100,2.8,CO,1650327479
troina,37.7854,14.5985,38.77,80,2,5.7,IT,1650327479
rovaniemi,66.5,25.7167,38.61,87,0,5.75,FI,1650327480
jibuti,11.5,42.5,74.93,78,14,9.84,DJ,1650327480
narsaq,60.9167,-46.05,44.82,71,100,3.58,GL,1650327480
nago,26.5881,127.9761,69.46,82,100,10.29,JP,1650327481
wilmington,34.2257,-77.9447,53.85,87,100,13.8,US,1650327406
hohhot,40.8106,111.6522,46.69,53,0,4.47,CN,1650327481
salvador,13.8333,-88.9167,77.4,63,63,4.94,SV,1650327482
vikhorevka,56.1201,101.1636,29.79,73,100,8.66,RU,1650327482
oinacu,43.95,26.0167,39.65,53,97,2.84,RO,1650327483
korsakovo,53.2677,37.3569,39.52,97,100,12.77,RU,1650327483
payo,-3.7508,103.6372,72.99,99,100,1.72,ID,1650327483
gazanjyk,39.2446,55.5154,59.04,59,32,5.5,TM,1650327484
cabedelo,-6.9811,-34.8339,77.67,79,91,9.84,BR,1650327484
burns lake,54.2331,-125.7533,36.82,57,100,12.33,CA,1650327319
baiyin,36.5583,104.2081,46.18,26,97,4.88,CN,1650327484
sokolo,14.7328,-6.1219,83.23,13,63,8.95,ML,1650327485
yatou,37.15,122.3833,59.92,34,3,5.61,CN,1650327486
toropets,56.4978,31.6353,32.92,81,95,6.46,RU,1650327486
otane,-39.8833,176.6333,65.01,79,76,4.47,NZ,1650327486
bengkulu,-3.8004,102.2655,76.19,82,99,4.16,ID,1650327285
beringovskiy,63.05,179.3167,31.32,99,100,7.2,RU,1650327487
makaha,21.4694,-158.2175,84.11,47,40,17.27,US,1650327488
elizabeth city,36.2946,-76.2511,57.22,96,100,12.66,US,1650327488
nicoya,10.1483,-85.452,82.53,69,100,7.72,CR,1650327488
ola,59.5833,151.2833,26.15,87,100,7.96,RU,1650327489
roma,43.2128,-75.4557,46.54,59,100,18.41,US,1650327489
palana,59.1167,159.9667,24.19,88,100,17.4,RU,1650327490
sai buri,6.7013,101.6168,78.51,86,100,5.1,TH,1650327490
srednekolymsk,67.45,153.6833,25.68,85,61,5.35,RU,1650327490
bandarbeyla,9.4942,50.8122,80.49,80,10,4.9,SO,1650327491
magadan,59.5667,150.8,25.54,88,95,7.02,RU,1650327491
portree,57.4129,-6.1942,45.52,91,96,17.43,GB,1650327491
chumikan,54.7183,135.315,37.72,80,96,14.76,RU,1650327492
cap malheureux,-19.9842,57.6142,78.48,88,60,1.01,MU,1650327492
karakol,42.4907,78.3936,49.73,39,71,5.32,KG,1650327492
mombetsu,44.3525,143.3525,48.22,49,20,5.75,JP,1650327493
lethem,3.3803,-59.7968,83.89,56,79,9.22,GY,1650327493
boende,-0.2167,20.8667,72.25,97,87,1.41,CD,1650327494
spirit river,55.7833,-118.8361,32.43,59,100,16.69,CA,1650327494
poso,-1.3959,120.7524,83.07,68,95,2.53,ID,1650327494
kananga,-5.8958,22.4178,70.09,94,99,2.3,CD,1650327495
roebourne,-20.7833,117.1333,82.08,42,3,20.71,AU,1650327495
knysna,-34.0363,23.0471,59.76,93,39,4.34,ZA,1650327496
richards bay,-28.783,32.0377,64.78,87,75,6.15,ZA,1650327496
awbari,26.5921,12.7805,64.38,23,0,3.22,LY,1650327497
altay,47.8667,88.1167,48.78,30,88,8.39,CN,1650327497
manzanillo,20.3433,-77.1167,77.11,77,34,4.47,CU,1650327498
santa isabel do rio negro,-0.4139,-65.0192,74.84,97,72,0.13,BR,1650327498
mizoch,50.4,26.15,29.75,94,14,4.18,UA,1650327498
shibetsu,43.659,145.132,47.1,57,20,12.66,JP,1650327441
chirongui,-12.9319,45.1483,78.73,74,91,1.28,YT,1650327499
moyale,3.5167,39.0584,67.48,86,75,5.12,KE,1650327499
pine bluff,34.2284,-92.0032,61.09,58,0,5.23,US,1650327500
chernyshevsk,52.5243,117.0174,52.5,48,94,13.06,RU,1650327500
yenagoa,4.9247,6.2642,76.59,93,100,2.46,NG,1650327482
maputo,-25.9653,32.5892,64.22,91,100,10.0,MZ,1650327415
kyren,51.6828,102.1408,47.46,59,100,4.45,RU,1650327501
derzhavinsk,51.1,66.3167,44.53,58,20,3.71,KZ,1650327501
san quintin,30.4833,-115.95,66.18,67,11,19.39,MX,1650327502
ypsonas,34.6884,32.9574,64.27,82,0,19.57,CY,1650327502
yakeshi,49.2833,120.7333,50.95,37,100,6.02,CN,1650327503
whitefish,48.4111,-114.3376,47.1,59,75,6.91,US,1650327503
kurmanayevka,52.5093,52.0675,53.64,71,100,6.15,RU,1650327503
umm lajj,25.0213,37.2685,85.91,32,98,9.19,SA,1650327504
alyangula,-13.8483,136.4192,83.93,71,83,11.59,AU,1650327504
havre-saint-pierre,50.2334,-63.5986,32.0,86,0,4.61,CA,1650327505
masaka,-0.3338,31.7341,62.83,93,56,3.36,UG,1650327505
coffs harbour,-30.3,153.1333,75.16,53,19,12.66,AU,1650327406
pangobilian,8.8011,117.8594,82.99,79,80,11.77,PH,1650327505
pacific grove,36.6177,-121.9166,65.88,60,0,8.05,US,1650327391
batemans bay,-35.7167,150.1833,66.09,60,100,4.34,AU,1650327506
lasa,46.6166,10.7002,47.28,90,15,5.41,IT,1650327506
singapore,1.2897,103.8501,82.35,80,75,2.3,SG,1650327413
egvekinot,66.3167,-179.1667,28.0,98,100,5.14,RU,1650327507
alice springs,-23.7,133.8833,69.22,32,75,17.27,AU,1650327426
griffith,41.5284,-87.4237,37.26,72,100,18.41,US,1650327507
oranjemund,-28.55,16.4333,73.69,31,0,9.31,NA,1650327507
biak,-0.9131,122.8766,81.36,74,60,1.32,ID,1650327508
tukrah,32.5341,20.5791,57.04,82,43,11.3,LY,1650327508
jacareacanga,-6.2222,-57.7528,74.12,97,89,1.28,BR,1650327509
framingham,42.2793,-71.4162,48.04,61,100,3.0,US,1650327509
hervey bay,-25.2986,152.8535,77.02,71,16,5.01,AU,1650327510
dicabisagan,17.0818,122.4157,79.38,79,32,5.46,PH,1650327510
yavaros,26.7,-109.5167,92.44,30,17,15.57,MX,1650327511
koumac,-20.5667,164.2833,80.49,71,6,7.7,NC,1650327511
lake city,30.1897,-82.6393,75.85,64,0,5.75,US,1650327367
itaituba,-4.2761,-55.9836,74.32,98,99,0.47,BR,1650327512
namie,37.4833,141.0,59.54,63,35,10.71,JP,1650327512
bauchi,10.5,10.0,79.32,66,99,8.37,NG,1650327512
rawson,-43.3002,-65.1023,61.34,68,7,6.8,AR,1650327513
xining,36.6167,101.7667,37.96,56,93,3.91,CN,1650327513
bone,51.9669,12.1396,44.82,71,90,5.95,DE,1650327513
chabahar,25.2919,60.643,79.23,69,45,4.5,IR,1650327514
destin,30.3935,-86.4958,69.06,70,0,23.0,US,1650327463
golden gate,26.1879,-81.6951,82.42,66,0,12.66,US,1650327514
bohicon,7.1783,2.0667,76.44,84,100,3.56,BJ,1650327514
